[
    {
        "location": {
            "latitude": 54.3272251,
            "longitude": 18.5602068
        },
        "categories": {
            "main": "Transport",
            "sub": "Rowery MEVO"
        },
        "name": "GDA370",
        "address": {
            "street": "Lawendowe wzgórze",
            "city": "Trójmiasto",
            "postcode": "---"
        }
    },
    {
        "location": {
            "latitude": 54.373734401692076,
            "longitude": 18.72929096185743
        },
        "categories": {
            "main": "Transport",
            "sub": "Rowery MEVO"
        },
        "name": "GDA379",
        "address": {
            "street": "Wydmy, 80-656 Gdańsk",
            "city": "Trójmiasto",
            "postcode": "---"
        }
    },
    {
        "location": {
            "latitude": 54.419942,
            "longitude": 18.470406
        },
        "categories": {
            "main": "Transport",
            "sub": "Rowery MEVO"
        },
        "name": "GDA373",
        "address": {
            "street": "Rondo Junony",
            "city": "Trójmiasto",
            "postcode": "---"
        }
    },
    {
        "location": {
            "latitude": 54.40109228211401,
            "longitude": 18.64713197888264
        },
        "categories": {
            "main": "Transport",
            "sub": "Rowery MEVO"
        },
        "name": "GDA375",
        "address": {
            "street": "Letnicka",
            "city": "Trójmiasto",
            "postcode": "---"
        }
    },
    {
        "location": {
            "latitude": 54.3014250014771,
            "longitude": 18.607359939485804
        },
        "categories": {
            "main": "Transport",
            "sub": "Rowery MEVO"
        },
        "name": "GDA388",
        "address": {
            "street": "Rondo Starogardzka/Czerska",
            "city": "Trójmiasto",
            "postcode": "---"
        }
    },
    {
        "location": {
            "latitude": 54.38908713,
            "longitude": 18.4822624
        },
        "categories": {
            "main": "Transport",
            "sub": "Rowery MEVO"
        },
        "name": "GDA378",
        "address": {
            "street": "Radarowa",
            "city": "Trójmiasto",
            "postcode": "---"
        }
    },
    {
        "location": {
            "latitude": 54.32187,
            "longitude": 18.5608
        },
        "categories": {
            "main": "Transport",
            "sub": "Rowery MEVO"
        },
        "name": "GDA385",
        "address": {
            "street": "Rondo Guderskiego/Flisykowskiego",
            "city": "Trójmiasto",
            "postcode": "---"
        }
    },
    {
        "location": {
            "latitude": 54.330873,
            "longitude": 18.557719
        },
        "categories": {
            "main": "Transport",
            "sub": "Rowery MEVO"
        },
        "name": "GDA371",
        "address": {
            "street": "Jabłoniowa/Turzycowa",
            "city": "Trójmiasto",
            "postcode": "---"
        }
    },
    {
        "location": {
            "latitude": 54.33185,
            "longitude": 18.56417
        },
        "categories": {
            "main": "Transport",
            "sub": "Rowery MEVO"
        },
        "name": "GDA383",
        "address": {
            "street": "Jabłoniowa",
            "city": "Trójmiasto",
            "postcode": "---"
        }
    },
    {
        "location": {
            "latitude": 54.31798,
            "longitude": 18.56839
        },
        "categories": {
            "main": "Transport",
            "sub": "Rowery MEVO"
        },
        "name": "GDA386",
        "address": {
            "street": "Jaworzniaków",
            "city": "Trójmiasto",
            "postcode": "---"
        }
    },
    {
        "location": {
            "latitude": 54.30361022,
            "longitude": 18.61379527
        },
        "categories": {
            "main": "Transport",
            "sub": "Rowery MEVO"
        },
        "name": "GDA387",
        "address": {
            "street": "Jagiełły",
            "city": "Trójmiasto",
            "postcode": "---"
        }
    },
    {
        "location": {
            "latitude": 54.34207,
            "longitude": 18.66896
        },
        "categories": {
            "main": "Transport",
            "sub": "Rowery MEVO"
        },
        "name": "GDA382",
        "address": {
            "street": "Modra",
            "city": "Trójmiasto",
            "postcode": "---"
        }
    },
    {
        "location": {
            "latitude": 54.34948,
            "longitude": 18.70621
        },
        "categories": {
            "main": "Transport",
            "sub": "Rowery MEVO"
        },
        "name": "GDA381",
        "address": {
            "street": "Rzęsna",
            "city": "Trójmiasto",
            "postcode": "---"
        }
    },
    {
        "location": {
            "latitude": 54.35909,
            "longitude": 18.74597
        },
        "categories": {
            "main": "Transport",
            "sub": "Rowery MEVO"
        },
        "name": "GDA380",
        "address": {
            "street": "Kępna",
            "city": "Trójmiasto",
            "postcode": "---"
        }
    },
    {
        "location": {
            "latitude": 54.5752,
            "longitude": 18.49053
        },
        "categories": {
            "main": "Transport",
            "sub": "Rowery MEVO"
        },
        "name": "KOS015",
        "address": {
            "street": "Wiejska",
            "city": "Trójmiasto",
            "postcode": "---"
        }
    },
    {
        "location": {
            "latitude": 54.56409,
            "longitude": 18.50585
        },
        "categories": {
            "main": "Transport",
            "sub": "Rowery MEVO"
        },
        "name": "KOS016",
        "address": {
            "street": "Derdowskiego",
            "city": "Trójmiasto",
            "postcode": "---"
        }
    },
    {
        "location": {
            "latitude": 54.5842,
            "longitude": 18.47796
        },
        "categories": {
            "main": "Transport",
            "sub": "Rowery MEVO"
        },
        "name": "KOS014",
        "address": {
            "street": "Sezamkowa",
            "city": "Trójmiasto",
            "postcode": "---"
        }
    },
    {
        "location": {
            "latitude": 54.59188,
            "longitude": 18.48759
        },
        "categories": {
            "main": "Transport",
            "sub": "Rowery MEVO"
        },
        "name": "KOS013",
        "address": {
            "street": "Słonecznikowa/Astrowa",
            "city": "Trójmiasto",
            "postcode": "---"
        }
    },
    {
        "location": {
            "latitude": 54.60501,
            "longitude": 18.47749
        },
        "categories": {
            "main": "Transport",
            "sub": "Rowery MEVO"
        },
        "name": "KOS012",
        "address": {
            "street": "Lubczykowa",
            "city": "Trójmiasto",
            "postcode": "---"
        }
    },
    {
        "location": {
            "latitude": 54.32356,
            "longitude": 18.55579
        },
        "categories": {
            "main": "Transport",
            "sub": "Rowery MEVO"
        },
        "name": "GDA384",
        "address": {
            "street": "Czemińskiego/Guderskiego",
            "city": "Trójmiasto",
            "postcode": "---"
        }
    },
    {
        "location": {
            "latitude": 54.39393,
            "longitude": 18.64408
        },
        "categories": {
            "main": "Transport",
            "sub": "Rowery MEVO"
        },
        "name": "GDA376",
        "address": {
            "street": "sucha",
            "city": "Trójmiasto",
            "postcode": "---"
        }
    },
    {
        "location": {
            "latitude": 54.39447645,
            "longitude": 18.62103389
        },
        "categories": {
            "main": "Transport",
            "sub": "Rowery MEVO"
        },
        "name": "GDA374",
        "address": {
            "street": "Grudziądzka",
            "city": "Trójmiasto",
            "postcode": "---"
        }
    },
    {
        "location": {
            "latitude": 54.36375,
            "longitude": 18.64732
        },
        "categories": {
            "main": "Transport",
            "sub": "Rowery MEVO"
        },
        "name": "GDA372",
        "address": {
            "street": "Narzędziowców",
            "city": "Trójmiasto",
            "postcode": "---"
        }
    },
    {
        "location": {
            "latitude": 54.349959,
            "longitude": 18.574246
        },
        "categories": {
            "main": "Transport",
            "sub": "Rowery MEVO"
        },
        "name": "GDA366",
        "address": {
            "street": "Adamowicza",
            "city": "Trójmiasto",
            "postcode": "---"
        }
    },
    {
        "location": {
            "latitude": 54.328892,
            "longitude": 18.568796
        },
        "categories": {
            "main": "Transport",
            "sub": "Rowery MEVO"
        },
        "name": "GDA369",
        "address": {
            "street": "Lawendowe wzgórze",
            "city": "Trójmiasto",
            "postcode": "---"
        }
    },
    {
        "location": {
            "latitude": 54.331717,
            "longitude": 18.570822
        },
        "categories": {
            "main": "Transport",
            "sub": "Rowery MEVO"
        },
        "name": "GDA368",
        "address": {
            "street": "Warszawska",
            "city": "Trójmiasto",
            "postcode": "---"
        }
    },
    {
        "location": {
            "latitude": 54.3439594,
            "longitude": 18.8305346
        },
        "categories": {
            "main": "Transport",
            "sub": "Rowery MEVO"
        },
        "name": "GDA364",
        "address": {
            "street": "Sobieszewo, Turystyczna",
            "city": "Trójmiasto",
            "postcode": "---"
        }
    },
    {
        "location": {
            "latitude": 54.33499,
            "longitude": 18.933902
        },
        "categories": {
            "main": "Transport",
            "sub": "Rowery MEVO"
        },
        "name": "GDA365",
        "address": {
            "street": "Sobieszewo, Boguckiego",
            "city": "Trójmiasto",
            "postcode": "---"
        }
    },
    {
        "location": {
            "latitude": 54.3872159,
            "longitude": 18.4461948
        },
        "categories": {
            "main": "Transport",
            "sub": "Rowery MEVO"
        },
        "name": "GDA377",
        "address": {
            "street": "Gdańsk Rębiechowo",
            "city": "Trójmiasto",
            "postcode": "---"
        }
    },
    {
        "location": {
            "latitude": 54.338218,
            "longitude": 18.572119
        },
        "categories": {
            "main": "Transport",
            "sub": "Rowery MEVO"
        },
        "name": "GDA367",
        "address": {
            "street": "skrzyżowanie Adamowicza/Kartuska",
            "city": "Trójmiasto",
            "postcode": "---"
        }
    },
    {
        "location": {
            "latitude": 54.34861612050537,
            "longitude": 18.654126563829493
        },
        "categories": {
            "main": "Transport",
            "sub": "Rowery MEVO"
        },
        "name": "OMGGS",
        "address": {
            "street": "Długi Targ 39/40, 80-830 Gdańsk",
            "city": "Trójmiasto",
            "postcode": "---"
        }
    },
    {
        "location": {
            "latitude": 54.4120642,
            "longitude": 18.5769125
        },
        "categories": {
            "main": "Transport",
            "sub": "Rowery MEVO"
        },
        "name": "GDA033",
        "address": {
            "street": "Beniowskiego 66, 80-382 Gdańsk",
            "city": "Trójmiasto",
            "postcode": "---"
        }
    },
    {
        "location": {
            "latitude": 54.412794,
            "longitude": 18.5811569
        },
        "categories": {
            "main": "Transport",
            "sub": "Rowery MEVO"
        },
        "name": "GDA034",
        "address": {
            "street": "Bolesława Krzywoustego 19, 80-360 Gdańsk",
            "city": "Trójmiasto",
            "postcode": "---"
        }
    },
    {
        "location": {
            "latitude": 54.4132809,
            "longitude": 18.584921
        },
        "categories": {
            "main": "Transport",
            "sub": "Rowery MEVO"
        },
        "name": "GDA035",
        "address": {
            "street": "Bolesława Krzywoustego 20A, 80-360 Gdańsk",
            "city": "Trójmiasto",
            "postcode": "---"
        }
    },
    {
        "location": {
            "latitude": 54.4117088,
            "longitude": 18.5844151
        },
        "categories": {
            "main": "Transport",
            "sub": "Rowery MEVO"
        },
        "name": "GDA036",
        "address": {
            "street": "Czerwony Dwór 26, 80-383 Gdańsk",
            "city": "Trójmiasto",
            "postcode": "---"
        }
    },
    {
        "location": {
            "latitude": 54.4116514,
            "longitude": 18.5875389
        },
        "categories": {
            "main": "Transport",
            "sub": "Rowery MEVO"
        },
        "name": "GDA037",
        "address": {
            "street": "Chłopska 41, 80-349 Gdańsk",
            "city": "Trójmiasto",
            "postcode": "---"
        }
    },
    {
        "location": {
            "latitude": 54.4090882,
            "longitude": 18.5861307
        },
        "categories": {
            "main": "Transport",
            "sub": "Rowery MEVO"
        },
        "name": "GDA038",
        "address": {
            "street": "Generała T. Bora-Komorowskiego 31, 80-377 Gdańsk",
            "city": "Trójmiasto",
            "postcode": "---"
        }
    },
    {
        "location": {
            "latitude": 54.4136227,
            "longitude": 18.5880968
        },
        "categories": {
            "main": "Transport",
            "sub": "Rowery MEVO"
        },
        "name": "GDA039",
        "address": {
            "street": "Chłopska 34A, 80-368 Gdańsk",
            "city": "Trójmiasto",
            "postcode": "---"
        }
    },
    {
        "location": {
            "latitude": 54.4159087,
            "longitude": 18.5876723
        },
        "categories": {
            "main": "Transport",
            "sub": "Rowery MEVO"
        },
        "name": "GDA040",
        "address": {
            "street": "Chłopska 34D, 80-358 Gdańsk",
            "city": "Trójmiasto",
            "postcode": "---"
        }
    },
    {
        "location": {
            "latitude": 54.4169893,
            "longitude": 18.5915682
        },
        "categories": {
            "main": "Transport",
            "sub": "Rowery MEVO"
        },
        "name": "GDA041",
        "address": {
            "street": "Piastowska 100D, 80-358 Gdańsk",
            "city": "Trójmiasto",
            "postcode": "---"
        }
    },
    {
        "location": {
            "latitude": 54.4217508,
            "longitude": 18.6016453
        },
        "categories": {
            "main": "Transport",
            "sub": "Rowery MEVO"
        },
        "name": "GDA042",
        "address": {
            "street": "Kapliczna 18, 80-341 Gdańsk",
            "city": "Trójmiasto",
            "postcode": "---"
        }
    },
    {
        "location": {
            "latitude": 54.4160978,
            "longitude": 18.5964168
        },
        "categories": {
            "main": "Transport",
            "sub": "Rowery MEVO"
        },
        "name": "GDA043",
        "address": {
            "street": "Prezydenta Lecha Kaczyńskiego 6A, 80-373 Gdańsk",
            "city": "Trójmiasto",
            "postcode": "---"
        }
    },
    {
        "location": {
            "latitude": 54.4150283,
            "longitude": 18.6011302
        },
        "categories": {
            "main": "Transport",
            "sub": "Rowery MEVO"
        },
        "name": "GDA044",
        "address": {
            "street": "Prezydenta Lecha Kaczyńskiego 16, 80-365 Gdańsk",
            "city": "Trójmiasto",
            "postcode": "---"
        }
    },
    {
        "location": {
            "latitude": 54.4131106,
            "longitude": 18.5925311
        },
        "categories": {
            "main": "Transport",
            "sub": "Rowery MEVO"
        },
        "name": "GDA045",
        "address": {
            "street": "Jagiellońska 7, 80-371 Gdańsk",
            "city": "Trójmiasto",
            "postcode": "---"
        }
    },
    {
        "location": {
            "latitude": 54.4122016,
            "longitude": 18.5885344
        },
        "categories": {
            "main": "Transport",
            "sub": "Rowery MEVO"
        },
        "name": "GDA047",
        "address": {
            "street": "Jagiellońska 10M, 80-371 Gdańsk",
            "city": "Trójmiasto",
            "postcode": "---"
        }
    },
    {
        "location": {
            "latitude": 54.408088,
            "longitude": 18.5898205
        },
        "categories": {
            "main": "Transport",
            "sub": "Rowery MEVO"
        },
        "name": "GDA048",
        "address": {
            "street": "Chłopska 18, 80-309 Gdańsk",
            "city": "Trójmiasto",
            "postcode": "---"
        }
    },
    {
        "location": {
            "latitude": 54.4089435,
            "longitude": 18.5940589
        },
        "categories": {
            "main": "Transport",
            "sub": "Rowery MEVO"
        },
        "name": "GDA049",
        "address": {
            "street": "Obrońców Wybrzeża 1, 63-756 Gdańsk",
            "city": "Trójmiasto",
            "postcode": "---"
        }
    },
    {
        "location": {
            "latitude": 54.4091835,
            "longitude": 18.5976696
        },
        "categories": {
            "main": "Transport",
            "sub": "Rowery MEVO"
        },
        "name": "GDA050",
        "address": {
            "street": "Obrońców Wybrzeża 2A, 80-334 Gdańsk",
            "city": "Trójmiasto",
            "postcode": "---"
        }
    },
    {
        "location": {
            "latitude": 54.4098525,
            "longitude": 18.5992425
        },
        "categories": {
            "main": "Transport",
            "sub": "Rowery MEVO"
        },
        "name": "GDA051",
        "address": {
            "street": "Obrońców Wybrzeża 19, 80-398 Gdańsk",
            "city": "Trójmiasto",
            "postcode": "---"
        }
    },
    {
        "location": {
            "latitude": 54.4108954,
            "longitude": 18.6041376
        },
        "categories": {
            "main": "Transport",
            "sub": "Rowery MEVO"
        },
        "name": "GDA052",
        "address": {
            "street": "Obrońców Wybrzeża 27, 80-365 Gdańsk",
            "city": "Trójmiasto",
            "postcode": "---"
        }
    },
    {
        "location": {
            "latitude": 54.4054598,
            "longitude": 18.5997007
        },
        "categories": {
            "main": "Transport",
            "sub": "Rowery MEVO"
        },
        "name": "GDA053",
        "address": {
            "street": "Kołobrzeska 67, 80-396 Gdańsk",
            "city": "Trójmiasto",
            "postcode": "---"
        }
    },
    {
        "location": {
            "latitude": 54.4042446,
            "longitude": 18.5922225
        },
        "categories": {
            "main": "Transport",
            "sub": "Rowery MEVO"
        },
        "name": "GDA054",
        "address": {
            "street": "Kołobrzeska 45, 80-391 Gdańsk",
            "city": "Trójmiasto",
            "postcode": "---"
        }
    },
    {
        "location": {
            "latitude": 54.4069816,
            "longitude": 18.5890912
        },
        "categories": {
            "main": "Transport",
            "sub": "Rowery MEVO"
        },
        "name": "GDA055",
        "address": {
            "street": "Śląska 86, 80-389 Gdańsk",
            "city": "Trójmiasto",
            "postcode": "---"
        }
    },
    {
        "location": {
            "latitude": 54.4040458,
            "longitude": 18.5903393
        },
        "categories": {
            "main": "Transport",
            "sub": "Rowery MEVO"
        },
        "name": "GDA056",
        "address": {
            "street": "Kołobrzeska 43, 80-391 Gdańsk",
            "city": "Trójmiasto",
            "postcode": "---"
        }
    },
    {
        "location": {
            "latitude": 54.4020771,
            "longitude": 18.5914493
        },
        "categories": {
            "main": "Transport",
            "sub": "Rowery MEVO"
        },
        "name": "GDA057",
        "address": {
            "street": "aleja Rzeczypospolitej 4/151, 80-369 Gdańsk",
            "city": "Trójmiasto",
            "postcode": "---"
        }
    },
    {
        "location": {
            "latitude": 54.4030551,
            "longitude": 18.5869497
        },
        "categories": {
            "main": "Transport",
            "sub": "Rowery MEVO"
        },
        "name": "GDA058",
        "address": {
            "street": "Kołobrzeska 32, 80-984 Gdańsk",
            "city": "Trójmiasto",
            "postcode": "---"
        }
    },
    {
        "location": {
            "latitude": 54.4050124,
            "longitude": 18.5850847
        },
        "categories": {
            "main": "Transport",
            "sub": "Rowery MEVO"
        },
        "name": "GDA059",
        "address": {
            "street": "Krynicka 29, 80-393 Gdańsk",
            "city": "Trójmiasto",
            "postcode": "---"
        }
    },
    {
        "location": {
            "latitude": 54.4062622,
            "longitude": 18.5795854
        },
        "categories": {
            "main": "Transport",
            "sub": "Rowery MEVO"
        },
        "name": "GDA060",
        "address": {
            "street": "Beniowskiego 1, 80-382 Gdańsk",
            "city": "Trójmiasto",
            "postcode": "---"
        }
    },
    {
        "location": {
            "latitude": 54.4043222,
            "longitude": 18.5762904
        },
        "categories": {
            "main": "Transport",
            "sub": "Rowery MEVO"
        },
        "name": "GDA061",
        "address": {
            "street": "Lęborska 3B, 80-386 Gdańsk",
            "city": "Trójmiasto",
            "postcode": "---"
        }
    },
    {
        "location": {
            "latitude": 54.401667,
            "longitude": 18.576447
        },
        "categories": {
            "main": "Transport",
            "sub": "Rowery MEVO"
        },
        "name": "GDA062",
        "address": {
            "street": "Słupska 26C, 80-392 Gdańsk",
            "city": "Trójmiasto",
            "postcode": "---"
        }
    },
    {
        "location": {
            "latitude": 54.4015477,
            "longitude": 18.5771668
        },
        "categories": {
            "main": "Transport",
            "sub": "Rowery MEVO"
        },
        "name": "GDA063",
        "address": {
            "street": "Kołobrzeska 2, 80-390 Gdańsk",
            "city": "Trójmiasto",
            "postcode": "---"
        }
    },
    {
        "location": {
            "latitude": 54.4025834,
            "longitude": 18.5814932
        },
        "categories": {
            "main": "Transport",
            "sub": "Rowery MEVO"
        },
        "name": "GDA064",
        "address": {
            "street": "Szczecińska 23, 80-387 Gdańsk",
            "city": "Trójmiasto",
            "postcode": "---"
        }
    },
    {
        "location": {
            "latitude": 54.4026628,
            "longitude": 18.5720424
        },
        "categories": {
            "main": "Transport",
            "sub": "Rowery MEVO"
        },
        "name": "GDA065",
        "address": {
            "street": "Aleja Grunwaldzka 472, 80-309 Gdańsk",
            "city": "Trójmiasto",
            "postcode": "---"
        }
    },
    {
        "location": {
            "latitude": 54.4009109,
            "longitude": 18.5737664
        },
        "categories": {
            "main": "Transport",
            "sub": "Rowery MEVO"
        },
        "name": "GDA066",
        "address": {
            "street": "Jana Bażyńskiego 2, 80-309 Gdańsk",
            "city": "Trójmiasto",
            "postcode": "---"
        }
    },
    {
        "location": {
            "latitude": 54.4009349,
            "longitude": 18.5749621
        },
        "categories": {
            "main": "Transport",
            "sub": "Rowery MEVO"
        },
        "name": "GDA067",
        "address": {
            "street": "Aleja Grunwaldzka 417, 80-309 Gdańsk",
            "city": "Trójmiasto",
            "postcode": "---"
        }
    },
    {
        "location": {
            "latitude": 54.3986149,
            "longitude": 18.5762511
        },
        "categories": {
            "main": "Transport",
            "sub": "Rowery MEVO"
        },
        "name": "GDA068",
        "address": {
            "street": "Aleja Grunwaldzka 411, 80-309 Gdańsk",
            "city": "Trójmiasto",
            "postcode": "---"
        }
    },
    {
        "location": {
            "latitude": 54.3988103,
            "longitude": 18.5683705
        },
        "categories": {
            "main": "Transport",
            "sub": "Rowery MEVO"
        },
        "name": "GDA069",
        "address": {
            "street": "Wita Stwosza 48, 80-308 Gdańsk",
            "city": "Trójmiasto",
            "postcode": "---"
        }
    },
    {
        "location": {
            "latitude": 54.3959017,
            "longitude": 18.5707202
        },
        "categories": {
            "main": "Transport",
            "sub": "Rowery MEVO"
        },
        "name": "GDA070",
        "address": {
            "street": "Macierzy Szkolnej w Gdańsku 8, 80-308 Gdańsk",
            "city": "Trójmiasto",
            "postcode": "---"
        }
    },
    {
        "location": {
            "latitude": 54.4133677,
            "longitude": 18.6238331
        },
        "categories": {
            "main": "Transport",
            "sub": "Rowery MEVO"
        },
        "name": "GDA071",
        "address": {
            "street": "Jantarowa 21, 80-341 Gdańsk",
            "city": "Trójmiasto",
            "postcode": "---"
        }
    },
    {
        "location": {
            "latitude": 54.4112302,
            "longitude": 18.6290499
        },
        "categories": {
            "main": "Transport",
            "sub": "Rowery MEVO"
        },
        "name": "GDA072",
        "address": {
            "street": "Aleja Generała Józefa Hallera 277, 80-502 Gdańsk",
            "city": "Trójmiasto",
            "postcode": "---"
        }
    },
    {
        "location": {
            "latitude": 54.4080708,
            "longitude": 18.6272554
        },
        "categories": {
            "main": "Transport",
            "sub": "Rowery MEVO"
        },
        "name": "GDA073",
        "address": {
            "street": "Aleja Generała Józefa Hallera 247C, 80-502 Gdańsk",
            "city": "Trójmiasto",
            "postcode": "---"
        }
    },
    {
        "location": {
            "latitude": 54.4063345,
            "longitude": 18.6319209
        },
        "categories": {
            "main": "Transport",
            "sub": "Rowery MEVO"
        },
        "name": "GDA074",
        "address": {
            "street": "Emilii Plater 14B, 80-522 Gdańsk",
            "city": "Trójmiasto",
            "postcode": "---"
        }
    },
    {
        "location": {
            "latitude": 54.4045861,
            "longitude": 18.6247778
        },
        "categories": {
            "main": "Transport",
            "sub": "Rowery MEVO"
        },
        "name": "GDA075",
        "address": {
            "street": "Aleja Generała Józefa Hallera 233, 80-502 Gdańsk",
            "city": "Trójmiasto",
            "postcode": "---"
        }
    },
    {
        "location": {
            "latitude": 54.4041138,
            "longitude": 18.6283289
        },
        "categories": {
            "main": "Transport",
            "sub": "Rowery MEVO"
        },
        "name": "GDA076",
        "address": {
            "street": "Dworska 29, 80-506 Gdańsk",
            "city": "Trójmiasto",
            "postcode": "---"
        }
    },
    {
        "location": {
            "latitude": 54.4041728,
            "longitude": 18.6332361
        },
        "categories": {
            "main": "Transport",
            "sub": "Rowery MEVO"
        },
        "name": "GDA077",
        "address": {
            "street": "Gdańska 20, 80-518 Gdańsk",
            "city": "Trójmiasto",
            "postcode": "---"
        }
    },
    {
        "location": {
            "latitude": 54.4067217,
            "longitude": 18.6385696
        },
        "categories": {
            "main": "Transport",
            "sub": "Rowery MEVO"
        },
        "name": "GDA078",
        "address": {
            "street": "Konstantego Ildefonsa Gałczyńskiego 2, 80-524 Gdańsk",
            "city": "Trójmiasto",
            "postcode": "---"
        }
    },
    {
        "location": {
            "latitude": 54.4050012,
            "longitude": 18.643718
        },
        "categories": {
            "main": "Transport",
            "sub": "Rowery MEVO"
        },
        "name": "GDA079",
        "address": {
            "street": "Ksawerego Dunikowskiego 17A, 80-524 Gdańsk",
            "city": "Trójmiasto",
            "postcode": "---"
        }
    },
    {
        "location": {
            "latitude": 54.4030383,
            "longitude": 18.6392604
        },
        "categories": {
            "main": "Transport",
            "sub": "Rowery MEVO"
        },
        "name": "GDA080",
        "address": {
            "street": "Łozy 17I, 80-516 Gdańsk",
            "city": "Trójmiasto",
            "postcode": "---"
        }
    },
    {
        "location": {
            "latitude": 54.4030109,
            "longitude": 18.655441
        },
        "categories": {
            "main": "Transport",
            "sub": "Rowery MEVO"
        },
        "name": "GDA081",
        "address": {
            "street": "Wyzwolenia 7A, 80-537 Gdańsk",
            "city": "Trójmiasto",
            "postcode": "---"
        }
    },
    {
        "location": {
            "latitude": 54.4002698,
            "longitude": 18.6614674
        },
        "categories": {
            "main": "Transport",
            "sub": "Rowery MEVO"
        },
        "name": "GDA082",
        "address": {
            "street": "Wyzwolenia 28, 80-537 Gdańsk",
            "city": "Trójmiasto",
            "postcode": "---"
        }
    },
    {
        "location": {
            "latitude": 54.3994049,
            "longitude": 18.6693607
        },
        "categories": {
            "main": "Transport",
            "sub": "Rowery MEVO"
        },
        "name": "GDA083",
        "address": {
            "street": "Wolności 8, 80-538 Gdańsk",
            "city": "Trójmiasto",
            "postcode": "---"
        }
    },
    {
        "location": {
            "latitude": 54.4008559,
            "longitude": 18.671317
        },
        "categories": {
            "main": "Transport",
            "sub": "Rowery MEVO"
        },
        "name": "GDA084",
        "address": {
            "street": "Ks. Mariana Góreckiego 3, 80-544 Gdańsk",
            "city": "Trójmiasto",
            "postcode": "---"
        }
    },
    {
        "location": {
            "latitude": 54.3890595,
            "longitude": 18.6495517
        },
        "categories": {
            "main": "Transport",
            "sub": "Rowery MEVO"
        },
        "name": "GDA085",
        "address": {
            "street": "Starowiejska 17, 80-534 Gdańsk",
            "city": "Trójmiasto",
            "postcode": "---"
        }
    },
    {
        "location": {
            "latitude": 54.3906251,
            "longitude": 18.6428542
        },
        "categories": {
            "main": "Transport",
            "sub": "Rowery MEVO"
        },
        "name": "GDA086",
        "address": {
            "street": "Pokoleń Lechii Gdańsk 1, 80-560 Gdańsk",
            "city": "Trójmiasto",
            "postcode": "---"
        }
    },
    {
        "location": {
            "latitude": 54.3863202,
            "longitude": 18.6364689
        },
        "categories": {
            "main": "Transport",
            "sub": "Rowery MEVO"
        },
        "name": "GDA087",
        "address": {
            "street": "Żaglowa 11, 80-560 Gdańsk",
            "city": "Trójmiasto",
            "postcode": "---"
        }
    },
    {
        "location": {
            "latitude": 54.3823482,
            "longitude": 18.6378922
        },
        "categories": {
            "main": "Transport",
            "sub": "Rowery MEVO"
        },
        "name": "GDA088",
        "address": {
            "street": "Narwicka 2G, 80-557 Gdańsk",
            "city": "Trójmiasto",
            "postcode": "---"
        }
    },
    {
        "location": {
            "latitude": 54.4076244,
            "longitude": 18.6148341
        },
        "categories": {
            "main": "Transport",
            "sub": "Rowery MEVO"
        },
        "name": "GDA089",
        "address": {
            "street": "Czarny Dwór 18, 80-365 Gdańsk",
            "city": "Trójmiasto",
            "postcode": "---"
        }
    },
    {
        "location": {
            "latitude": 54.4073669,
            "longitude": 18.6101659
        },
        "categories": {
            "main": "Transport",
            "sub": "Rowery MEVO"
        },
        "name": "GDA090",
        "address": {
            "street": "Jelitkowski Dwór 17, 80-365 Gdańsk",
            "city": "Trójmiasto",
            "postcode": "---"
        }
    },
    {
        "location": {
            "latitude": 54.4066122,
            "longitude": 18.6059394
        },
        "categories": {
            "main": "Transport",
            "sub": "Rowery MEVO"
        },
        "name": "GDA091",
        "address": {
            "street": "Kołobrzeska 56A, 80-394 Gdańsk",
            "city": "Trójmiasto",
            "postcode": "---"
        }
    },
    {
        "location": {
            "latitude": 54.404969,
            "longitude": 18.6044096
        },
        "categories": {
            "main": "Transport",
            "sub": "Rowery MEVO"
        },
        "name": "GDA092",
        "address": {
            "street": "Olsztyńska 2b, 80-395 Gdańsk",
            "city": "Trójmiasto",
            "postcode": "---"
        }
    },
    {
        "location": {
            "latitude": 54.4048229,
            "longitude": 18.5969398
        },
        "categories": {
            "main": "Transport",
            "sub": "Rowery MEVO"
        },
        "name": "GDA093",
        "address": {
            "street": "Kołobrzeska 42A, 80-391 Gdańsk",
            "city": "Trójmiasto",
            "postcode": "---"
        }
    },
    {
        "location": {
            "latitude": 54.4000381,
            "longitude": 18.5954995
        },
        "categories": {
            "main": "Transport",
            "sub": "Rowery MEVO"
        },
        "name": "GDA094",
        "address": {
            "street": "Aleja Rzeczypospolitej 25, 80-463 Gdańsk",
            "city": "Trójmiasto",
            "postcode": "---"
        }
    },
    {
        "location": {
            "latitude": 54.4045064,
            "longitude": 18.6123297
        },
        "categories": {
            "main": "Transport",
            "sub": "Rowery MEVO"
        },
        "name": "GDA095",
        "address": {
            "street": "Aleja Jana Pawła II 25C, 80-462 Gdańsk",
            "city": "Trójmiasto",
            "postcode": "---"
        }
    },
    {
        "location": {
            "latitude": 54.3999566,
            "longitude": 18.6064973
        },
        "categories": {
            "main": "Transport",
            "sub": "Rowery MEVO"
        },
        "name": "GDA096",
        "address": {
            "street": "Janusza Meissnera 4, 80-462 Gdańsk",
            "city": "Trójmiasto",
            "postcode": "---"
        }
    },
    {
        "location": {
            "latitude": 54.397234,
            "longitude": 18.6045205
        },
        "categories": {
            "main": "Transport",
            "sub": "Rowery MEVO"
        },
        "name": "GDA097",
        "address": {
            "street": "Aleja Jana Pawła II 3b, 80-462 Gdańsk",
            "city": "Trójmiasto",
            "postcode": "---"
        }
    },
    {
        "location": {
            "latitude": 54.3970874,
            "longitude": 18.5978985
        },
        "categories": {
            "main": "Transport",
            "sub": "Rowery MEVO"
        },
        "name": "GDA098",
        "address": {
            "street": "Aleja Jana Pawła II 1e, 80-462 Gdańsk",
            "city": "Trójmiasto",
            "postcode": "---"
        }
    },
    {
        "location": {
            "latitude": 54.4025041,
            "longitude": 18.6108344
        },
        "categories": {
            "main": "Transport",
            "sub": "Rowery MEVO"
        },
        "name": "GDA099",
        "address": {
            "street": "aleja Jana Pawła II 48, 80-462 Gdańsk",
            "city": "Trójmiasto",
            "postcode": "---"
        }
    },
    {
        "location": {
            "latitude": 54.399374,
            "longitude": 18.607348
        },
        "categories": {
            "main": "Transport",
            "sub": "Rowery MEVO"
        },
        "name": "GDA100",
        "address": {
            "street": "Zbigniewa Burzyńskiego 1, 80-462 Gdańsk",
            "city": "Trójmiasto",
            "postcode": "---"
        }
    },
    {
        "location": {
            "latitude": 54.3957092,
            "longitude": 18.603511
        },
        "categories": {
            "main": "Transport",
            "sub": "Rowery MEVO"
        },
        "name": "GDA101",
        "address": {
            "street": "Zbigniewa Burzyńskiego 6H, 80-462 Gdańsk",
            "city": "Trójmiasto",
            "postcode": "---"
        }
    },
    {
        "location": {
            "latitude": 54.3966953,
            "longitude": 18.6119055
        },
        "categories": {
            "main": "Transport",
            "sub": "Rowery MEVO"
        },
        "name": "GDA102",
        "address": {
            "street": "Kombatantów 1G, 80-464 Gdańsk",
            "city": "Trójmiasto",
            "postcode": "---"
        }
    },
    {
        "location": {
            "latitude": 54.3943767,
            "longitude": 18.614148
        },
        "categories": {
            "main": "Transport",
            "sub": "Rowery MEVO"
        },
        "name": "GDA103",
        "address": {
            "street": "Leszczyńskich 5A, 80-464 Gdańsk",
            "city": "Trójmiasto",
            "postcode": "---"
        }
    },
    {
        "location": {
            "latitude": 54.3920442,
            "longitude": 18.6168327
        },
        "categories": {
            "main": "Transport",
            "sub": "Rowery MEVO"
        },
        "name": "GDA104",
        "address": {
            "street": "Konstantego Ciołkowskiego 1A, 80-414 Gdańsk",
            "city": "Trójmiasto",
            "postcode": "---"
        }
    },
    {
        "location": {
            "latitude": 54.3898412,
            "longitude": 18.6087667
        },
        "categories": {
            "main": "Transport",
            "sub": "Rowery MEVO"
        },
        "name": "GDA105",
        "address": {
            "street": "aleja Rzeczypospolitej 33, 80-463 Gdańsk",
            "city": "Trójmiasto",
            "postcode": "---"
        }
    },
    {
        "location": {
            "latitude": 54.3962212,
            "longitude": 18.5892784
        },
        "categories": {
            "main": "Transport",
            "sub": "Rowery MEVO"
        },
        "name": "GDA106",
        "address": {
            "street": "Pilotów 23E, 80-460 Gdańsk",
            "city": "Trójmiasto",
            "postcode": "---"
        }
    },
    {
        "location": {
            "latitude": 54.3971784,
            "longitude": 18.596894
        },
        "categories": {
            "main": "Transport",
            "sub": "Rowery MEVO"
        },
        "name": "GDA107",
        "address": {
            "street": "Startowa 13K, 80-461 Gdańsk",
            "city": "Trójmiasto",
            "postcode": "---"
        }
    },
    {
        "location": {
            "latitude": 54.393505,
            "longitude": 18.5994117
        },
        "categories": {
            "main": "Transport",
            "sub": "Rowery MEVO"
        },
        "name": "GDA108",
        "address": {
            "street": "Startowa 5A, 80-462 Gdańsk",
            "city": "Trójmiasto",
            "postcode": "---"
        }
    },
    {
        "location": {
            "latitude": 54.390708,
            "longitude": 18.5965129
        },
        "categories": {
            "main": "Transport",
            "sub": "Rowery MEVO"
        },
        "name": "GDA109",
        "address": {
            "street": "Pilotów 6A, 80-460 Gdańsk",
            "city": "Trójmiasto",
            "postcode": "---"
        }
    },
    {
        "location": {
            "latitude": 54.3921138,
            "longitude": 18.5900393
        },
        "categories": {
            "main": "Transport",
            "sub": "Rowery MEVO"
        },
        "name": "GDA110",
        "address": {
            "street": "Pilotów 12A/32, 80-460 Gdańsk",
            "city": "Trójmiasto",
            "postcode": "---"
        }
    },
    {
        "location": {
            "latitude": 54.3893996,
            "longitude": 18.5937191
        },
        "categories": {
            "main": "Transport",
            "sub": "Rowery MEVO"
        },
        "name": "GDA111",
        "address": {
            "street": "Hynka 59, 80-465 Gdańsk",
            "city": "Trójmiasto",
            "postcode": "---"
        }
    },
    {
        "location": {
            "latitude": 54.389994,
            "longitude": 18.597972
        },
        "categories": {
            "main": "Transport",
            "sub": "Rowery MEVO"
        },
        "name": "GDA112",
        "address": {
            "street": "Dywizjonu 303 5K, 80-462 Gdańsk",
            "city": "Trójmiasto",
            "postcode": "---"
        }
    },
    {
        "location": {
            "latitude": 54.3911144,
            "longitude": 18.6006875
        },
        "categories": {
            "main": "Transport",
            "sub": "Rowery MEVO"
        },
        "name": "GDA113",
        "address": {
            "street": "Dywizjonu 303 5A, 80-462 Gdańsk",
            "city": "Trójmiasto",
            "postcode": "---"
        }
    },
    {
        "location": {
            "latitude": 54.3911939,
            "longitude": 18.6007008
        },
        "categories": {
            "main": "Transport",
            "sub": "Rowery MEVO"
        },
        "name": "GDA114",
        "address": {
            "street": "Dywizjonu 303 33G, 80-462 Gdańsk",
            "city": "Trójmiasto",
            "postcode": "---"
        }
    },
    {
        "location": {
            "latitude": 54.3921351,
            "longitude": 18.6053414
        },
        "categories": {
            "main": "Transport",
            "sub": "Rowery MEVO"
        },
        "name": "GDA115",
        "address": {
            "street": "Jana Nagórskiego 7A, 80-463 Gdańsk",
            "city": "Trójmiasto",
            "postcode": "---"
        }
    },
    {
        "location": {
            "latitude": 54.3886618,
            "longitude": 18.6050708
        },
        "categories": {
            "main": "Transport",
            "sub": "Rowery MEVO"
        },
        "name": "GDA116",
        "address": {
            "street": "Skarżyńskiego 5F, 80-463 Gdańsk",
            "city": "Trójmiasto",
            "postcode": "---"
        }
    },
    {
        "location": {
            "latitude": 54.3942309,
            "longitude": 18.581392
        },
        "categories": {
            "main": "Transport",
            "sub": "Rowery MEVO"
        },
        "name": "GDA117",
        "address": {
            "street": "Aleja Grunwaldzka 309, 80-309 Gdańsk",
            "city": "Trójmiasto",
            "postcode": "---"
        }
    },
    {
        "location": {
            "latitude": 54.3912591,
            "longitude": 18.5778401
        },
        "categories": {
            "main": "Transport",
            "sub": "Rowery MEVO"
        },
        "name": "GDA118",
        "address": {
            "street": "Wita Stwosza 73, 80-308 Gdańsk",
            "city": "Trójmiasto",
            "postcode": "---"
        }
    },
    {
        "location": {
            "latitude": 54.389862,
            "longitude": 18.5685209
        },
        "categories": {
            "main": "Transport",
            "sub": "Rowery MEVO"
        },
        "name": "GDA119",
        "address": {
            "street": "Abrahama 38, 80-307 Gdańsk",
            "city": "Trójmiasto",
            "postcode": "---"
        }
    },
    {
        "location": {
            "latitude": 54.3898555,
            "longitude": 18.5738951
        },
        "categories": {
            "main": "Transport",
            "sub": "Rowery MEVO"
        },
        "name": "GDA120",
        "address": {
            "street": "Polanki 99, 80-302 Gdańsk",
            "city": "Trójmiasto",
            "postcode": "---"
        }
    },
    {
        "location": {
            "latitude": 54.3886109,
            "longitude": 18.5810215
        },
        "categories": {
            "main": "Transport",
            "sub": "Rowery MEVO"
        },
        "name": "GDA121",
        "address": {
            "street": "płk. Wilka-Krzyżanowskiego 2a, 80-271 Gdańsk",
            "city": "Trójmiasto",
            "postcode": "---"
        }
    },
    {
        "location": {
            "latitude": 54.3867775,
            "longitude": 18.5782197
        },
        "categories": {
            "main": "Transport",
            "sub": "Rowery MEVO"
        },
        "name": "GDA122",
        "address": {
            "street": "Bernarda Chrzanowskiego 64D, 80-289 Gdańsk",
            "city": "Trójmiasto",
            "postcode": "---"
        }
    },
    {
        "location": {
            "latitude": 54.3867877,
            "longitude": 18.5722504
        },
        "categories": {
            "main": "Transport",
            "sub": "Rowery MEVO"
        },
        "name": "GDA123",
        "address": {
            "street": "Piotra Norblina 11A, 80-304 Gdańsk",
            "city": "Trójmiasto",
            "postcode": "---"
        }
    },
    {
        "location": {
            "latitude": 54.3854283,
            "longitude": 18.5697635
        },
        "categories": {
            "main": "Transport",
            "sub": "Rowery MEVO"
        },
        "name": "GDA124",
        "address": {
            "street": "Piotra Michałowskiego 48, 80-300 Gdańsk",
            "city": "Trójmiasto",
            "postcode": "---"
        }
    },
    {
        "location": {
            "latitude": 54.3893661,
            "longitude": 18.5875447
        },
        "categories": {
            "main": "Transport",
            "sub": "Rowery MEVO"
        },
        "name": "GDA125",
        "address": {
            "street": "Aleja Grunwaldzka 232/4, 80-266 Gdańsk",
            "city": "Trójmiasto",
            "postcode": "---"
        }
    },
    {
        "location": {
            "latitude": 54.3870902,
            "longitude": 18.5920846
        },
        "categories": {
            "main": "Transport",
            "sub": "Rowery MEVO"
        },
        "name": "GDA126",
        "address": {
            "street": "Braci Lewoniewskich 2a, 80-465 Gdańsk",
            "city": "Trójmiasto",
            "postcode": "---"
        }
    },
    {
        "location": {
            "latitude": 54.3861257,
            "longitude": 18.592266
        },
        "categories": {
            "main": "Transport",
            "sub": "Rowery MEVO"
        },
        "name": "GDA127",
        "address": {
            "street": "Karola Szymanowskiego 2, 80-280 Gdańsk",
            "city": "Trójmiasto",
            "postcode": "---"
        }
    },
    {
        "location": {
            "latitude": 54.3863352,
            "longitude": 18.581436
        },
        "categories": {
            "main": "Transport",
            "sub": "Rowery MEVO"
        },
        "name": "GDA128",
        "address": {
            "street": "Fryderyka Chopina 36, 80-272 Gdańsk",
            "city": "Trójmiasto",
            "postcode": "---"
        }
    },
    {
        "location": {
            "latitude": 54.384644,
            "longitude": 18.581958
        },
        "categories": {
            "main": "Transport",
            "sub": "Rowery MEVO"
        },
        "name": "GDA129",
        "address": {
            "street": "Bernarda Chrzanowskiego 38, 80-278 Gdańsk",
            "city": "Trójmiasto",
            "postcode": "---"
        }
    },
    {
        "location": {
            "latitude": 54.3838928,
            "longitude": 18.5883165
        },
        "categories": {
            "main": "Transport",
            "sub": "Rowery MEVO"
        },
        "name": "GDA130",
        "address": {
            "street": "Karola Szymanowskiego 14, 80-280 Gdańsk",
            "city": "Trójmiasto",
            "postcode": "---"
        }
    },
    {
        "location": {
            "latitude": 54.36695895343297,
            "longitude": 18.692842698375728
        },
        "categories": {
            "main": "Transport",
            "sub": "Rowery MEVO"
        },
        "name": "GDA131",
        "address": {
            "street": "prof. Witolda Andruszkiewicza 5, 80-601 Gdańsk",
            "city": "Trójmiasto",
            "postcode": "---"
        }
    },
    {
        "location": {
            "latitude": 54.3807519,
            "longitude": 18.5881958
        },
        "categories": {
            "main": "Transport",
            "sub": "Rowery MEVO"
        },
        "name": "GDA132",
        "address": {
            "street": "Juliusza Słowackiego 29/87, 80-257 Gdańsk",
            "city": "Trójmiasto",
            "postcode": "---"
        }
    },
    {
        "location": {
            "latitude": 54.3790489,
            "longitude": 18.5885755
        },
        "categories": {
            "main": "Transport",
            "sub": "Rowery MEVO"
        },
        "name": "GDA133",
        "address": {
            "street": "Partyzantów 72/82, 80-254 Gdańsk",
            "city": "Trójmiasto",
            "postcode": "---"
        }
    },
    {
        "location": {
            "latitude": 54.3786056,
            "longitude": 18.5869609
        },
        "categories": {
            "main": "Transport",
            "sub": "Rowery MEVO"
        },
        "name": "GDA134",
        "address": {
            "street": "Róży Ostrowskiej 74, 80-001 Gdańsk",
            "city": "Trójmiasto",
            "postcode": "---"
        }
    },
    {
        "location": {
            "latitude": 54.3784701,
            "longitude": 18.5839192
        },
        "categories": {
            "main": "Transport",
            "sub": "Rowery MEVO"
        },
        "name": "GDA135",
        "address": {
            "street": "Partyzantów 103, 80-254 Gdańsk",
            "city": "Trójmiasto",
            "postcode": "---"
        }
    },
    {
        "location": {
            "latitude": 54.3767013,
            "longitude": 18.5804027
        },
        "categories": {
            "main": "Transport",
            "sub": "Rowery MEVO"
        },
        "name": "GDA136",
        "address": {
            "street": "Srebrniki 5, 80-282 Gdańsk",
            "city": "Trójmiasto",
            "postcode": "---"
        }
    },
    {
        "location": {
            "latitude": 54.3772656,
            "longitude": 18.5718838
        },
        "categories": {
            "main": "Transport",
            "sub": "Rowery MEVO"
        },
        "name": "GDA137",
        "address": {
            "street": "Juliusza Słowackiego 89, 80-283 Gdańsk",
            "city": "Trójmiasto",
            "postcode": "---"
        }
    },
    {
        "location": {
            "latitude": 54.380102,
            "longitude": 18.5599233
        },
        "categories": {
            "main": "Transport",
            "sub": "Rowery MEVO"
        },
        "name": "GDA138",
        "address": {
            "street": "Góralska 51A, 80-292 Gdańsk",
            "city": "Trójmiasto",
            "postcode": "---"
        }
    },
    {
        "location": {
            "latitude": 54.3765635,
            "longitude": 18.5648296
        },
        "categories": {
            "main": "Transport",
            "sub": "Rowery MEVO"
        },
        "name": "GDA139",
        "address": {
            "street": "Góralska 13B, 80-292 Gdańsk",
            "city": "Trójmiasto",
            "postcode": "---"
        }
    },
    {
        "location": {
            "latitude": 54.374532,
            "longitude": 18.5669034
        },
        "categories": {
            "main": "Transport",
            "sub": "Rowery MEVO"
        },
        "name": "GDA140",
        "address": {
            "street": "Mazowiecka 1, 80-292 Gdańsk",
            "city": "Trójmiasto",
            "postcode": "---"
        }
    },
    {
        "location": {
            "latitude": 54.3669795,
            "longitude": 18.5490937
        },
        "categories": {
            "main": "Transport",
            "sub": "Rowery MEVO"
        },
        "name": "GDA141",
        "address": {
            "street": "Jerzego Waldorffa 3, 80-283 Gdańsk",
            "city": "Trójmiasto",
            "postcode": "---"
        }
    },
    {
        "location": {
            "latitude": 54.3626549,
            "longitude": 18.5586863
        },
        "categories": {
            "main": "Transport",
            "sub": "Rowery MEVO"
        },
        "name": "GDA142",
        "address": {
            "street": "Potokowa 25, 80-283 Gdańsk",
            "city": "Trójmiasto",
            "postcode": "---"
        }
    },
    {
        "location": {
            "latitude": 54.3649788,
            "longitude": 18.5729407
        },
        "categories": {
            "main": "Transport",
            "sub": "Rowery MEVO"
        },
        "name": "GDA143",
        "address": {
            "street": "Rakoczego 7, 80-288 Gdańsk",
            "city": "Trójmiasto",
            "postcode": "---"
        }
    },
    {
        "location": {
            "latitude": 54.3863544,
            "longitude": 18.6057714
        },
        "categories": {
            "main": "Transport",
            "sub": "Rowery MEVO"
        },
        "name": "GDA144",
        "address": {
            "street": "Jana Kilińskiego 35",
            "city": "Trójmiasto",
            "postcode": "---"
        }
    },
    {
        "location": {
            "latitude": 54.3875896,
            "longitude": 18.6107299
        },
        "categories": {
            "main": "Transport",
            "sub": "Rowery MEVO"
        },
        "name": "GDA145",
        "address": {
            "street": "Aleja Legionów 15",
            "city": "Trójmiasto",
            "postcode": "---"
        }
    },
    {
        "location": {
            "latitude": 54.3882076,
            "longitude": 18.6169725
        },
        "categories": {
            "main": "Transport",
            "sub": "Rowery MEVO"
        },
        "name": "GDA146",
        "address": {
            "street": "Tadeusza Kościuszki 80A",
            "city": "Trójmiasto",
            "postcode": "---"
        }
    },
    {
        "location": {
            "latitude": 54.3882139,
            "longitude": 18.6228009
        },
        "categories": {
            "main": "Transport",
            "sub": "Rowery MEVO"
        },
        "name": "GDA147",
        "address": {
            "street": "Aleja Generała Józefa Hallera 165",
            "city": "Trójmiasto",
            "postcode": "---"
        }
    },
    {
        "location": {
            "latitude": 54.3870641,
            "longitude": 18.62887
        },
        "categories": {
            "main": "Transport",
            "sub": "Rowery MEVO"
        },
        "name": "GDA148",
        "address": {
            "street": "Racławicka 17C, 80-407 Gdańsk",
            "city": "Trójmiasto",
            "postcode": "---"
        }
    },
    {
        "location": {
            "latitude": 54.3858291,
            "longitude": 18.6164044
        },
        "categories": {
            "main": "Transport",
            "sub": "Rowery MEVO"
        },
        "name": "GDA149",
        "address": {
            "street": "Bolesława Chrobrego 27",
            "city": "Trójmiasto",
            "postcode": "---"
        }
    },
    {
        "location": {
            "latitude": 54.384664,
            "longitude": 18.6092919
        },
        "categories": {
            "main": "Transport",
            "sub": "Rowery MEVO"
        },
        "name": "GDA150",
        "address": {
            "street": "Jana Pestalozziego 1, 80-445 Gdańsk",
            "city": "Trójmiasto",
            "postcode": "---"
        }
    },
    {
        "location": {
            "latitude": 54.383761,
            "longitude": 18.606117
        },
        "categories": {
            "main": "Transport",
            "sub": "Rowery MEVO"
        },
        "name": "GDA151",
        "address": {
            "street": "Nad Stawem 8, 80-452 Gdańsk",
            "city": "Trójmiasto",
            "postcode": "---"
        }
    },
    {
        "location": {
            "latitude": 54.3817683,
            "longitude": 18.6065998
        },
        "categories": {
            "main": "Transport",
            "sub": "Rowery MEVO"
        },
        "name": "GDA152",
        "address": {
            "street": "Jana Kilińskiego 2, 80-001 Gdańsk",
            "city": "Trójmiasto",
            "postcode": "---"
        }
    },
    {
        "location": {
            "latitude": 54.38160126357985,
            "longitude": 18.60715160906335
        },
        "categories": {
            "main": "Transport",
            "sub": "Rowery MEVO"
        },
        "name": "GDA153",
        "address": {
            "street": "Jana Kilińskiego 2, Gdańsk",
            "city": "Trójmiasto",
            "postcode": "---"
        }
    },
    {
        "location": {
            "latitude": 54.3831607,
            "longitude": 18.6144484
        },
        "categories": {
            "main": "Transport",
            "sub": "Rowery MEVO"
        },
        "name": "GDA154",
        "address": {
            "street": "Joachima Lelewela 18A",
            "city": "Trójmiasto",
            "postcode": "---"
        }
    },
    {
        "location": {
            "latitude": 54.3810278,
            "longitude": 18.6136476
        },
        "categories": {
            "main": "Transport",
            "sub": "Rowery MEVO"
        },
        "name": "GDA155",
        "address": {
            "street": "Danusi 4D, 80-434 Gdańsk",
            "city": "Trójmiasto",
            "postcode": "---"
        }
    },
    {
        "location": {
            "latitude": 54.382873,
            "longitude": 18.5985451
        },
        "categories": {
            "main": "Transport",
            "sub": "Rowery MEVO"
        },
        "name": "GDA156",
        "address": {
            "street": "Aleja Grunwaldzka 141, 80-264 Gdańsk",
            "city": "Trójmiasto",
            "postcode": "---"
        }
    },
    {
        "location": {
            "latitude": 54.3812316,
            "longitude": 18.6054209
        },
        "categories": {
            "main": "Transport",
            "sub": "Rowery MEVO"
        },
        "name": "GDA157",
        "address": {
            "street": "Romana Dmowskiego 11C",
            "city": "Trójmiasto",
            "postcode": "---"
        }
    },
    {
        "location": {
            "latitude": 54.3810553,
            "longitude": 18.6052818
        },
        "categories": {
            "main": "Transport",
            "sub": "Rowery MEVO"
        },
        "name": "GDA158",
        "address": {
            "street": "Klonowa 4D",
            "city": "Trójmiasto",
            "postcode": "---"
        }
    },
    {
        "location": {
            "latitude": 54.3800692,
            "longitude": 18.6036406
        },
        "categories": {
            "main": "Transport",
            "sub": "Rowery MEVO"
        },
        "name": "GDA159",
        "address": {
            "street": "Aleja Grunwaldzka 117, 80-244 Gdańsk",
            "city": "Trójmiasto",
            "postcode": "---"
        }
    },
    {
        "location": {
            "latitude": 54.379909,
            "longitude": 18.6024964
        },
        "categories": {
            "main": "Transport",
            "sub": "Rowery MEVO"
        },
        "name": "GDA160",
        "address": {
            "street": "Aleja Grunwaldzka 122",
            "city": "Trójmiasto",
            "postcode": "---"
        }
    },
    {
        "location": {
            "latitude": 54.3807591,
            "longitude": 18.5936781
        },
        "categories": {
            "main": "Transport",
            "sub": "Rowery MEVO"
        },
        "name": "GDA161",
        "address": {
            "street": "Obywatelska 1, 80-259 Gdańsk",
            "city": "Trójmiasto",
            "postcode": "---"
        }
    },
    {
        "location": {
            "latitude": 54.3790935,
            "longitude": 18.5952564
        },
        "categories": {
            "main": "Transport",
            "sub": "Rowery MEVO"
        },
        "name": "GDA162",
        "address": {
            "street": "Partyzantów 59",
            "city": "Trójmiasto",
            "postcode": "---"
        }
    },
    {
        "location": {
            "latitude": 54.3784965,
            "longitude": 18.6006421
        },
        "categories": {
            "main": "Transport",
            "sub": "Rowery MEVO"
        },
        "name": "GDA163",
        "address": {
            "street": "Partyzantów 29, 80-254 Gdańsk",
            "city": "Trójmiasto",
            "postcode": "---"
        }
    },
    {
        "location": {
            "latitude": 54.3781091,
            "longitude": 18.6036896
        },
        "categories": {
            "main": "Transport",
            "sub": "Rowery MEVO"
        },
        "name": "GDA164",
        "address": {
            "street": "Partyzantów 13C",
            "city": "Trójmiasto",
            "postcode": "---"
        }
    },
    {
        "location": {
            "latitude": 54.3796897,
            "longitude": 18.6072603
        },
        "categories": {
            "main": "Transport",
            "sub": "Rowery MEVO"
        },
        "name": "GDA165",
        "address": {
            "street": "Brzozowa 1, 80-243 Gdańsk",
            "city": "Trójmiasto",
            "postcode": "---"
        }
    },
    {
        "location": {
            "latitude": 54.3786475,
            "longitude": 18.6076413
        },
        "categories": {
            "main": "Transport",
            "sub": "Rowery MEVO"
        },
        "name": "GDA166",
        "address": {
            "street": "Romana Dmowskiego 17, 80-243 Gdańsk",
            "city": "Trójmiasto",
            "postcode": "---"
        }
    },
    {
        "location": {
            "latitude": 54.3778801,
            "longitude": 18.607229
        },
        "categories": {
            "main": "Transport",
            "sub": "Rowery MEVO"
        },
        "name": "GDA167",
        "address": {
            "street": "Aleja Grunwaldzka 92, 80-244 Gdańsk",
            "city": "Trójmiasto",
            "postcode": "---"
        }
    },
    {
        "location": {
            "latitude": 54.37710003083552,
            "longitude": 18.608841110835954
        },
        "categories": {
            "main": "Transport",
            "sub": "Rowery MEVO"
        },
        "name": "GDA168",
        "address": {
            "street": "Aleja Grunwaldzka 78, 80-244 Gdańsk",
            "city": "Trójmiasto",
            "postcode": "---"
        }
    },
    {
        "location": {
            "latitude": 54.3771223,
            "longitude": 18.6110659
        },
        "categories": {
            "main": "Transport",
            "sub": "Rowery MEVO"
        },
        "name": "GDA169",
        "address": {
            "street": "Aleja Grunwaldzka 59",
            "city": "Trójmiasto",
            "postcode": "---"
        }
    },
    {
        "location": {
            "latitude": 54.3766916,
            "longitude": 18.6113386
        },
        "categories": {
            "main": "Transport",
            "sub": "Rowery MEVO"
        },
        "name": "GDA170",
        "address": {
            "street": "Aleja Grunwaldzka 62",
            "city": "Trójmiasto",
            "postcode": "---"
        }
    },
    {
        "location": {
            "latitude": 54.3747027,
            "longitude": 18.605363
        },
        "categories": {
            "main": "Transport",
            "sub": "Rowery MEVO"
        },
        "name": "GDA171",
        "address": {
            "street": "Stefana Batorego 2C",
            "city": "Trójmiasto",
            "postcode": "---"
        }
    },
    {
        "location": {
            "latitude": 54.3832844,
            "longitude": 18.6225117
        },
        "categories": {
            "main": "Transport",
            "sub": "Rowery MEVO"
        },
        "name": "GDA172",
        "address": {
            "street": "Adama Mickiewicza 24",
            "city": "Trójmiasto",
            "postcode": "---"
        }
    },
    {
        "location": {
            "latitude": 54.3794435,
            "longitude": 18.6316533
        },
        "categories": {
            "main": "Transport",
            "sub": "Rowery MEVO"
        },
        "name": "GDA173",
        "address": {
            "street": "Mikołaja Reja 34, 80-557 Gdańsk",
            "city": "Trójmiasto",
            "postcode": "---"
        }
    },
    {
        "location": {
            "latitude": 54.3789441,
            "longitude": 18.6161891
        },
        "categories": {
            "main": "Transport",
            "sub": "Rowery MEVO"
        },
        "name": "GDA174",
        "address": {
            "street": "Stanisława Wyspiańskiego 20a, 80-434 Gdańsk",
            "city": "Trójmiasto",
            "postcode": "---"
        }
    },
    {
        "location": {
            "latitude": 54.3776101,
            "longitude": 18.6191375
        },
        "categories": {
            "main": "Transport",
            "sub": "Rowery MEVO"
        },
        "name": "GDA175",
        "address": {
            "street": "Stanisława Wyspiańskiego 5A, 80-432 Gdańsk",
            "city": "Trójmiasto",
            "postcode": "---"
        }
    },
    {
        "location": {
            "latitude": 54.3764376,
            "longitude": 18.6239194
        },
        "categories": {
            "main": "Transport",
            "sub": "Rowery MEVO"
        },
        "name": "GDA176",
        "address": {
            "street": "Aleja Generała Józefa Hallera 17",
            "city": "Trójmiasto",
            "postcode": "---"
        }
    },
    {
        "location": {
            "latitude": 54.3757278,
            "longitude": 18.6265248
        },
        "categories": {
            "main": "Transport",
            "sub": "Rowery MEVO"
        },
        "name": "GDA177",
        "address": {
            "street": "Kliniczna 1b, 80-402 Gdańsk",
            "city": "Trójmiasto",
            "postcode": "---"
        }
    },
    {
        "location": {
            "latitude": 54.3745445,
            "longitude": 18.6271898
        },
        "categories": {
            "main": "Transport",
            "sub": "Rowery MEVO"
        },
        "name": "GDA178",
        "address": {
            "street": "Kliniczna 2A, 80-402 Gdańsk",
            "city": "Trójmiasto",
            "postcode": "---"
        }
    },
    {
        "location": {
            "latitude": 54.3742427,
            "longitude": 18.6310134
        },
        "categories": {
            "main": "Transport",
            "sub": "Rowery MEVO"
        },
        "name": "GDA179",
        "address": {
            "street": "Twarda 21",
            "city": "Trójmiasto",
            "postcode": "---"
        }
    },
    {
        "location": {
            "latitude": 54.37618037663131,
            "longitude": 18.614230389256306
        },
        "categories": {
            "main": "Transport",
            "sub": "Rowery MEVO"
        },
        "name": "GDA180",
        "address": {
            "street": "Aleja Grunwaldzka 19/23, 80-236 Gdańsk",
            "city": "Trójmiasto",
            "postcode": "---"
        }
    },
    {
        "location": {
            "latitude": 54.375386,
            "longitude": 18.6142663
        },
        "categories": {
            "main": "Transport",
            "sub": "Rowery MEVO"
        },
        "name": "GDA181",
        "address": {
            "street": "Aleja Grunwaldzka 30/32C, 80-229 Gdańsk",
            "city": "Trójmiasto",
            "postcode": "---"
        }
    },
    {
        "location": {
            "latitude": 54.3751631,
            "longitude": 18.6177496
        },
        "categories": {
            "main": "Transport",
            "sub": "Rowery MEVO"
        },
        "name": "GDA182",
        "address": {
            "street": "Aleja Grunwaldzka 16, 80-236 Gdańsk",
            "city": "Trójmiasto",
            "postcode": "---"
        }
    },
    {
        "location": {
            "latitude": 54.3735015,
            "longitude": 18.61536
        },
        "categories": {
            "main": "Transport",
            "sub": "Rowery MEVO"
        },
        "name": "GDA183",
        "address": {
            "street": "Bohaterów Getta Warszawskiego 8, 80-230 Gdańsk",
            "city": "Trójmiasto",
            "postcode": "---"
        }
    },
    {
        "location": {
            "latitude": 54.3725143,
            "longitude": 18.6202129
        },
        "categories": {
            "main": "Transport",
            "sub": "Rowery MEVO"
        },
        "name": "GDA184",
        "address": {
            "street": "Gabriela Narutowicza 11, 80-233 Gdańsk",
            "city": "Trójmiasto",
            "postcode": "---"
        }
    },
    {
        "location": {
            "latitude": 54.3732583,
            "longitude": 18.6256751
        },
        "categories": {
            "main": "Transport",
            "sub": "Rowery MEVO"
        },
        "name": "GDA185",
        "address": {
            "street": "Trubadurów 6e, 80-205 Gdańsk",
            "city": "Trójmiasto",
            "postcode": "---"
        }
    },
    {
        "location": {
            "latitude": 54.3720981,
            "longitude": 18.6257255
        },
        "categories": {
            "main": "Transport",
            "sub": "Rowery MEVO"
        },
        "name": "GDA186",
        "address": {
            "street": "Aleja Zwycięstwa 15, 80-219 Gdańsk",
            "city": "Trójmiasto",
            "postcode": "---"
        }
    },
    {
        "location": {
            "latitude": 54.3700074,
            "longitude": 18.6106885
        },
        "categories": {
            "main": "Transport",
            "sub": "Rowery MEVO"
        },
        "name": "GDA187",
        "address": {
            "street": "Do Studzienki 32, 80-227 Gdańsk",
            "city": "Trójmiasto",
            "postcode": "---"
        }
    },
    {
        "location": {
            "latitude": 54.3704346,
            "longitude": 18.6160961
        },
        "categories": {
            "main": "Transport",
            "sub": "Rowery MEVO"
        },
        "name": "GDA188",
        "address": {
            "street": "Traugutta 81, 80-221 Gdańsk",
            "city": "Trójmiasto",
            "postcode": "---"
        }
    },
    {
        "location": {
            "latitude": 54.36708554791048,
            "longitude": 18.612813819287794
        },
        "categories": {
            "main": "Transport",
            "sub": "Rowery MEVO"
        },
        "name": "GDA189",
        "address": {
            "street": "Jana III Sobieskiego 13, 80-216 Gdańsk",
            "city": "Trójmiasto",
            "postcode": "---"
        }
    },
    {
        "location": {
            "latitude": 54.3665723,
            "longitude": 18.6201621
        },
        "categories": {
            "main": "Transport",
            "sub": "Rowery MEVO"
        },
        "name": "GDA190",
        "address": {
            "street": "Mariana Smoluchowskiego 16, 80-214 Gdańsk",
            "city": "Trójmiasto",
            "postcode": "---"
        }
    },
    {
        "location": {
            "latitude": 54.368406,
            "longitude": 18.6299202
        },
        "categories": {
            "main": "Transport",
            "sub": "Rowery MEVO"
        },
        "name": "GDA191",
        "address": {
            "street": "Traugutta 1, 80-221 Gdańsk",
            "city": "Trójmiasto",
            "postcode": "---"
        }
    },
    {
        "location": {
            "latitude": 54.366357,
            "longitude": 18.6266482
        },
        "categories": {
            "main": "Transport",
            "sub": "Rowery MEVO"
        },
        "name": "GDA192",
        "address": {
            "street": "Dębinki 7B, 80-211 Gdańsk",
            "city": "Trójmiasto",
            "postcode": "---"
        }
    },
    {
        "location": {
            "latitude": 54.3629417,
            "longitude": 18.6298349
        },
        "categories": {
            "main": "Transport",
            "sub": "Rowery MEVO"
        },
        "name": "GDA193",
        "address": {
            "street": "Jana Dantyszka 1, 80-204 Gdańsk",
            "city": "Trójmiasto",
            "postcode": "---"
        }
    },
    {
        "location": {
            "latitude": 54.3622667,
            "longitude": 18.6054253
        },
        "categories": {
            "main": "Transport",
            "sub": "Rowery MEVO"
        },
        "name": "GDA194",
        "address": {
            "street": "Ludwika Pasteura 6, 80-215 Gdańsk",
            "city": "Trójmiasto",
            "postcode": "---"
        }
    },
    {
        "location": {
            "latitude": 54.3591433,
            "longitude": 18.6178024
        },
        "categories": {
            "main": "Transport",
            "sub": "Rowery MEVO"
        },
        "name": "GDA195",
        "address": {
            "street": "Cygańska Góra 12C, 80-171 Gdańsk",
            "city": "Trójmiasto",
            "postcode": "---"
        }
    },
    {
        "location": {
            "latitude": 54.3565491,
            "longitude": 18.6194251
        },
        "categories": {
            "main": "Transport",
            "sub": "Rowery MEVO"
        },
        "name": "GDA196",
        "address": {
            "street": "Powstańców Warszawskich 53, 80-165 Gdańsk",
            "city": "Trójmiasto",
            "postcode": "---"
        }
    },
    {
        "location": {
            "latitude": 54.355608,
            "longitude": 18.6139066
        },
        "categories": {
            "main": "Transport",
            "sub": "Rowery MEVO"
        },
        "name": "GDA197",
        "address": {
            "street": "Beethovena 19, 80-171 Gdańsk",
            "city": "Trójmiasto",
            "postcode": "---"
        }
    },
    {
        "location": {
            "latitude": 54.3560633,
            "longitude": 18.6065686
        },
        "categories": {
            "main": "Transport",
            "sub": "Rowery MEVO"
        },
        "name": "GDA198",
        "address": {
            "street": "Beethovena 78, 80-171 Gdańsk",
            "city": "Trójmiasto",
            "postcode": "---"
        }
    },
    {
        "location": {
            "latitude": 54.3534891,
            "longitude": 18.6076306
        },
        "categories": {
            "main": "Transport",
            "sub": "Rowery MEVO"
        },
        "name": "GDA199",
        "address": {
            "street": "Ignacego Paderewskiego 7, 80-171 Gdańsk",
            "city": "Trójmiasto",
            "postcode": "---"
        }
    },
    {
        "location": {
            "latitude": 54.3534209,
            "longitude": 18.5998351
        },
        "categories": {
            "main": "Transport",
            "sub": "Rowery MEVO"
        },
        "name": "GDA200",
        "address": {
            "street": "Karola Kurpińskiego 7, 80-169 Gdańsk",
            "city": "Trójmiasto",
            "postcode": "---"
        }
    },
    {
        "location": {
            "latitude": 54.3541029,
            "longitude": 18.5955175
        },
        "categories": {
            "main": "Transport",
            "sub": "Rowery MEVO"
        },
        "name": "GDA201",
        "address": {
            "street": "Schuberta 79, 80-172 Gdańsk",
            "city": "Trójmiasto",
            "postcode": "---"
        }
    },
    {
        "location": {
            "latitude": 54.364383,
            "longitude": 18.5889872
        },
        "categories": {
            "main": "Transport",
            "sub": "Rowery MEVO"
        },
        "name": "GDA202",
        "address": {
            "street": "Jaśkowa Dolina 93, 80-286 Gdańsk",
            "city": "Trójmiasto",
            "postcode": "---"
        }
    },
    {
        "location": {
            "latitude": 54.3617528,
            "longitude": 18.593818
        },
        "categories": {
            "main": "Transport",
            "sub": "Rowery MEVO"
        },
        "name": "GDA203",
        "address": {
            "street": "Franciszka Zabłockiego 1B, 80-287 Gdańsk",
            "city": "Trójmiasto",
            "postcode": "---"
        }
    },
    {
        "location": {
            "latitude": 54.360485,
            "longitude": 18.5898757
        },
        "categories": {
            "main": "Transport",
            "sub": "Rowery MEVO"
        },
        "name": "GDA204",
        "address": {
            "street": "ul. Nałkowskiej 3, 80-288 Gdańsk",
            "city": "Trójmiasto",
            "postcode": "---"
        }
    },
    {
        "location": {
            "latitude": 54.3579299,
            "longitude": 18.5859542
        },
        "categories": {
            "main": "Transport",
            "sub": "Rowery MEVO"
        },
        "name": "GDA205",
        "address": {
            "street": "Rakoczego 17, 80-288 Gdańsk",
            "city": "Trójmiasto",
            "postcode": "---"
        }
    },
    {
        "location": {
            "latitude": 54.3589207,
            "longitude": 18.5784842
        },
        "categories": {
            "main": "Transport",
            "sub": "Rowery MEVO"
        },
        "name": "GDA206",
        "address": {
            "street": "Rakoczego 5, 80-288 Gdańsk",
            "city": "Trójmiasto",
            "postcode": "---"
        }
    },
    {
        "location": {
            "latitude": 54.3552956,
            "longitude": 18.5776858
        },
        "categories": {
            "main": "Transport",
            "sub": "Rowery MEVO"
        },
        "name": "GDA207",
        "address": {
            "street": "Powstania Listopadowego 2A",
            "city": "Trójmiasto",
            "postcode": "---"
        }
    },
    {
        "location": {
            "latitude": 54.3522199,
            "longitude": 18.5762294
        },
        "categories": {
            "main": "Transport",
            "sub": "Rowery MEVO"
        },
        "name": "GDA208",
        "address": {
            "street": "ul. Bulońska 46, 80-288 Gdańsk",
            "city": "Trójmiasto",
            "postcode": "---"
        }
    },
    {
        "location": {
            "latitude": 54.3574389,
            "longitude": 18.5832283
        },
        "categories": {
            "main": "Transport",
            "sub": "Rowery MEVO"
        },
        "name": "GDA210",
        "address": {
            "street": "Warneńska 4/6, 80-288 Gdańsk",
            "city": "Trójmiasto",
            "postcode": "---"
        }
    },
    {
        "location": {
            "latitude": 54.3556929,
            "longitude": 18.5880039
        },
        "categories": {
            "main": "Transport",
            "sub": "Rowery MEVO"
        },
        "name": "GDA211",
        "address": {
            "street": "Franciszka Rakoczego 23",
            "city": "Trójmiasto",
            "postcode": "---"
        }
    },
    {
        "location": {
            "latitude": 54.3533406,
            "longitude": 18.5495486
        },
        "categories": {
            "main": "Transport",
            "sub": "Rowery MEVO"
        },
        "name": "GDA212",
        "address": {
            "street": "Generała Władysława Andersa 28",
            "city": "Trójmiasto",
            "postcode": "---"
        }
    },
    {
        "location": {
            "latitude": 54.3493715,
            "longitude": 18.5510681
        },
        "categories": {
            "main": "Transport",
            "sub": "Rowery MEVO"
        },
        "name": "GDA213",
        "address": {
            "street": "Gen. Władysława Andersa 2, 80-175 Gdańsk",
            "city": "Trójmiasto",
            "postcode": "---"
        }
    },
    {
        "location": {
            "latitude": 54.3505607,
            "longitude": 18.5593772
        },
        "categories": {
            "main": "Transport",
            "sub": "Rowery MEVO"
        },
        "name": "GDA214",
        "address": {
            "street": "Myśliwska 61A, 80-283 Gdańsk",
            "city": "Trójmiasto",
            "postcode": "---"
        }
    },
    {
        "location": {
            "latitude": 54.349985,
            "longitude": 18.566196
        },
        "categories": {
            "main": "Transport",
            "sub": "Rowery MEVO"
        },
        "name": "GDA215",
        "address": {
            "street": "Morenowe Wzgórze 2, 80-283 Gdańsk",
            "city": "Trójmiasto",
            "postcode": "---"
        }
    },
    {
        "location": {
            "latitude": 54.3443106,
            "longitude": 18.5627266
        },
        "categories": {
            "main": "Transport",
            "sub": "Rowery MEVO"
        },
        "name": "GDA216",
        "address": {
            "street": "Damroki 89, 80-177 Gdańsk",
            "city": "Trójmiasto",
            "postcode": "---"
        }
    },
    {
        "location": {
            "latitude": 54.3416273,
            "longitude": 18.5659397
        },
        "categories": {
            "main": "Transport",
            "sub": "Rowery MEVO"
        },
        "name": "GDA217",
        "address": {
            "street": "Damroki 30, 80-177 Gdańsk",
            "city": "Trójmiasto",
            "postcode": "---"
        }
    },
    {
        "location": {
            "latitude": 54.3408377,
            "longitude": 18.5614069
        },
        "categories": {
            "main": "Transport",
            "sub": "Rowery MEVO"
        },
        "name": "GDA218",
        "address": {
            "street": "Pólnicy 3, 80-177 Gdańsk",
            "city": "Trójmiasto",
            "postcode": "---"
        }
    },
    {
        "location": {
            "latitude": 54.3388441,
            "longitude": 18.5646007
        },
        "categories": {
            "main": "Transport",
            "sub": "Rowery MEVO"
        },
        "name": "GDA219",
        "address": {
            "street": "Damroki 2, 80-177 Gdańsk",
            "city": "Trójmiasto",
            "postcode": "---"
        }
    },
    {
        "location": {
            "latitude": 54.3420595,
            "longitude": 18.5788379
        },
        "categories": {
            "main": "Transport",
            "sub": "Rowery MEVO"
        },
        "name": "GDA220",
        "address": {
            "street": "Kartuska 313, 80-125 Gdańsk",
            "city": "Trójmiasto",
            "postcode": "---"
        }
    },
    {
        "location": {
            "latitude": 54.3500062,
            "longitude": 18.5825829
        },
        "categories": {
            "main": "Transport",
            "sub": "Rowery MEVO"
        },
        "name": "GDA221",
        "address": {
            "street": "Piekarnicza 21, 80-126 Gdańsk",
            "city": "Trójmiasto",
            "postcode": "---"
        }
    },
    {
        "location": {
            "latitude": 54.3508722,
            "longitude": 18.5861135
        },
        "categories": {
            "main": "Transport",
            "sub": "Rowery MEVO"
        },
        "name": "GDA222",
        "address": {
            "street": "Piekarnicza 3, 80-126 Gdańsk",
            "city": "Trójmiasto",
            "postcode": "---"
        }
    },
    {
        "location": {
            "latitude": 54.3514846,
            "longitude": 18.5918886
        },
        "categories": {
            "main": "Transport",
            "sub": "Rowery MEVO"
        },
        "name": "GDA223",
        "address": {
            "street": "Rakoczego 28, 80-171 Gdańsk",
            "city": "Trójmiasto",
            "postcode": "---"
        }
    },
    {
        "location": {
            "latitude": 54.3492576,
            "longitude": 18.5902917
        },
        "categories": {
            "main": "Transport",
            "sub": "Rowery MEVO"
        },
        "name": "GDA224",
        "address": {
            "street": "Stanisława Lema 21",
            "city": "Trójmiasto",
            "postcode": "---"
        }
    },
    {
        "location": {
            "latitude": 54.3447971,
            "longitude": 18.5898401
        },
        "categories": {
            "main": "Transport",
            "sub": "Rowery MEVO"
        },
        "name": "GDA225",
        "address": {
            "street": "Kartuska 274",
            "city": "Trójmiasto",
            "postcode": "---"
        }
    },
    {
        "location": {
            "latitude": 54.3460552,
            "longitude": 18.5980766
        },
        "categories": {
            "main": "Transport",
            "sub": "Rowery MEVO"
        },
        "name": "GDA226",
        "address": {
            "street": "Kartuska 234, 80-122 Gdańsk",
            "city": "Trójmiasto",
            "postcode": "---"
        }
    },
    {
        "location": {
            "latitude": 54.3482192,
            "longitude": 18.6063996
        },
        "categories": {
            "main": "Transport",
            "sub": "Rowery MEVO"
        },
        "name": "GDA227",
        "address": {
            "street": "Kartuska 190, 80-122 Gdańsk",
            "city": "Trójmiasto",
            "postcode": "---"
        }
    },
    {
        "location": {
            "latitude": 54.3482447,
            "longitude": 18.6064985
        },
        "categories": {
            "main": "Transport",
            "sub": "Rowery MEVO"
        },
        "name": "GDA228",
        "address": {
            "street": "Kartuska 190, 80-122 Gdańsk",
            "city": "Trójmiasto",
            "postcode": "---"
        }
    },
    {
        "location": {
            "latitude": 54.3493047,
            "longitude": 18.6132975
        },
        "categories": {
            "main": "Transport",
            "sub": "Rowery MEVO"
        },
        "name": "GDA229",
        "address": {
            "street": "Kartuska 145",
            "city": "Trójmiasto",
            "postcode": "---"
        }
    },
    {
        "location": {
            "latitude": 54.3486984,
            "longitude": 18.6182183
        },
        "categories": {
            "main": "Transport",
            "sub": "Rowery MEVO"
        },
        "name": "GDA230",
        "address": {
            "street": "Kartuska 126",
            "city": "Trójmiasto",
            "postcode": "---"
        }
    },
    {
        "location": {
            "latitude": 54.3491765,
            "longitude": 18.6250098
        },
        "categories": {
            "main": "Transport",
            "sub": "Rowery MEVO"
        },
        "name": "GDA231",
        "address": {
            "street": "Ciasna 1",
            "city": "Trójmiasto",
            "postcode": "---"
        }
    },
    {
        "location": {
            "latitude": 54.3580385,
            "longitude": 18.6297944
        },
        "categories": {
            "main": "Transport",
            "sub": "Rowery MEVO"
        },
        "name": "GDA232",
        "address": {
            "street": "Kolonia Praca 28, 80-156 Gdańsk",
            "city": "Trójmiasto",
            "postcode": "---"
        }
    },
    {
        "location": {
            "latitude": 54.3566643,
            "longitude": 18.6398094
        },
        "categories": {
            "main": "Transport",
            "sub": "Rowery MEVO"
        },
        "name": "GDA233",
        "address": {
            "street": "Gradowa 8",
            "city": "Trójmiasto",
            "postcode": "---"
        }
    },
    {
        "location": {
            "latitude": 54.3538696,
            "longitude": 18.633203
        },
        "categories": {
            "main": "Transport",
            "sub": "Rowery MEVO"
        },
        "name": "GDA234",
        "address": {
            "street": "Powstańców Warszawskich 17, 80-152 Gdańsk",
            "city": "Trójmiasto",
            "postcode": "---"
        }
    },
    {
        "location": {
            "latitude": 54.3506312,
            "longitude": 18.6317593
        },
        "categories": {
            "main": "Transport",
            "sub": "Rowery MEVO"
        },
        "name": "GDA235",
        "address": {
            "street": "Kartuska 26, 80-104 Gdańsk",
            "city": "Trójmiasto",
            "postcode": "---"
        }
    },
    {
        "location": {
            "latitude": 54.3515382,
            "longitude": 18.6367922
        },
        "categories": {
            "main": "Transport",
            "sub": "Rowery MEVO"
        },
        "name": "GDA236",
        "address": {
            "street": "Kartuska 5, 80-103 Gdańsk",
            "city": "Trójmiasto",
            "postcode": "---"
        }
    },
    {
        "location": {
            "latitude": 54.3514905,
            "longitude": 18.6405871
        },
        "categories": {
            "main": "Transport",
            "sub": "Rowery MEVO"
        },
        "name": "GDA237",
        "address": {
            "street": "Nowe Ogrody 12",
            "city": "Trójmiasto",
            "postcode": "---"
        }
    },
    {
        "location": {
            "latitude": 54.3607214,
            "longitude": 18.6412126
        },
        "categories": {
            "main": "Transport",
            "sub": "Rowery MEVO"
        },
        "name": "GDA238",
        "address": {
            "street": "Generała Antoniego Giełguda 4",
            "city": "Trójmiasto",
            "postcode": "---"
        }
    },
    {
        "location": {
            "latitude": 54.3613583,
            "longitude": 18.6506061
        },
        "categories": {
            "main": "Transport",
            "sub": "Rowery MEVO"
        },
        "name": "GDA239",
        "address": {
            "street": "Plac Solidarności 1",
            "city": "Trójmiasto",
            "postcode": "---"
        }
    },
    {
        "location": {
            "latitude": 54.3603513,
            "longitude": 18.6498145
        },
        "categories": {
            "main": "Transport",
            "sub": "Rowery MEVO"
        },
        "name": "GDA240",
        "address": {
            "street": "Doki 2-42",
            "city": "Trójmiasto",
            "postcode": "---"
        }
    },
    {
        "location": {
            "latitude": 54.3578161,
            "longitude": 18.6473732
        },
        "categories": {
            "main": "Transport",
            "sub": "Rowery MEVO"
        },
        "name": "GDA241",
        "address": {
            "street": "Rajska 14E",
            "city": "Trójmiasto",
            "postcode": "---"
        }
    },
    {
        "location": {
            "latitude": 54.3577167,
            "longitude": 18.6505507
        },
        "categories": {
            "main": "Transport",
            "sub": "Rowery MEVO"
        },
        "name": "GDA242",
        "address": {
            "street": "Łagiewniki 3, 80-855 Gdańsk",
            "city": "Trójmiasto",
            "postcode": "---"
        }
    },
    {
        "location": {
            "latitude": 54.3585179,
            "longitude": 18.6535883
        },
        "categories": {
            "main": "Transport",
            "sub": "Rowery MEVO"
        },
        "name": "GDA243",
        "address": {
            "street": "Wałowa 25",
            "city": "Trójmiasto",
            "postcode": "---"
        }
    },
    {
        "location": {
            "latitude": 54.3567103,
            "longitude": 18.6518141
        },
        "categories": {
            "main": "Transport",
            "sub": "Rowery MEVO"
        },
        "name": "GDA244",
        "address": {
            "street": "Jana Heweliusza 23, 80-861 Gdańsk",
            "city": "Trójmiasto",
            "postcode": "---"
        }
    },
    {
        "location": {
            "latitude": 54.3558803,
            "longitude": 18.6490781
        },
        "categories": {
            "main": "Transport",
            "sub": "Rowery MEVO"
        },
        "name": "GDA245",
        "address": {
            "street": "Jana Heweliusza 9, 80-890 Gdańsk",
            "city": "Trójmiasto",
            "postcode": "---"
        }
    },
    {
        "location": {
            "latitude": 54.356404,
            "longitude": 18.6430653
        },
        "categories": {
            "main": "Transport",
            "sub": "Rowery MEVO"
        },
        "name": "GDA246",
        "address": {
            "street": "3 Maja 12, 80-802 Gdańsk",
            "city": "Trójmiasto",
            "postcode": "---"
        }
    },
    {
        "location": {
            "latitude": 54.354424,
            "longitude": 18.6425814
        },
        "categories": {
            "main": "Transport",
            "sub": "Rowery MEVO"
        },
        "name": "GDA247",
        "address": {
            "street": "3 Maja 9, 80-802 Gdańsk",
            "city": "Trójmiasto",
            "postcode": "---"
        }
    },
    {
        "location": {
            "latitude": 54.354846709300546,
            "longitude": 18.64502469108629
        },
        "categories": {
            "main": "Transport",
            "sub": "Rowery MEVO"
        },
        "name": "GDA248",
        "address": {
            "street": "Podwale Grodzkie 2D, 80-895 Gdańsk",
            "city": "Trójmiasto",
            "postcode": "---"
        }
    },
    {
        "location": {
            "latitude": 54.3556952,
            "longitude": 18.6460014
        },
        "categories": {
            "main": "Transport",
            "sub": "Rowery MEVO"
        },
        "name": "GDA249",
        "address": {
            "street": "Podwale Grodzkie 8, 80-895 Gdańsk",
            "city": "Trójmiasto",
            "postcode": "---"
        }
    },
    {
        "location": {
            "latitude": 54.3552216,
            "longitude": 18.6460994
        },
        "categories": {
            "main": "Transport",
            "sub": "Rowery MEVO"
        },
        "name": "GDA250",
        "address": {
            "street": "Karmelicka 1, 80-851 Gdańsk",
            "city": "Trójmiasto",
            "postcode": "---"
        }
    },
    {
        "location": {
            "latitude": 54.3543159,
            "longitude": 18.6463379
        },
        "categories": {
            "main": "Transport",
            "sub": "Rowery MEVO"
        },
        "name": "GDA251",
        "address": {
            "street": "Elżbietańska 9/10",
            "city": "Trójmiasto",
            "postcode": "---"
        }
    },
    {
        "location": {
            "latitude": 54.3521686,
            "longitude": 18.6455638
        },
        "categories": {
            "main": "Transport",
            "sub": "Rowery MEVO"
        },
        "name": "GDA252",
        "address": {
            "street": "Wały Jagiellońskie 1, 80-854 Gdańsk",
            "city": "Trójmiasto",
            "postcode": "---"
        }
    },
    {
        "location": {
            "latitude": 54.35253,
            "longitude": 18.6492476
        },
        "categories": {
            "main": "Transport",
            "sub": "Rowery MEVO"
        },
        "name": "GDA253",
        "address": {
            "street": "Podwale Staromiejskie 109/112",
            "city": "Trójmiasto",
            "postcode": "---"
        }
    },
    {
        "location": {
            "latitude": 54.3543652,
            "longitude": 18.6500362
        },
        "categories": {
            "main": "Transport",
            "sub": "Rowery MEVO"
        },
        "name": "GDA254",
        "address": {
            "street": "Wielkie Młyny 16, 80-849 Gdańsk",
            "city": "Trójmiasto",
            "postcode": "---"
        }
    },
    {
        "location": {
            "latitude": 54.3532291,
            "longitude": 18.6527757
        },
        "categories": {
            "main": "Transport",
            "sub": "Rowery MEVO"
        },
        "name": "GDA255",
        "address": {
            "street": "Plac Dominikański 7, 80-844 Gdańsk",
            "city": "Trójmiasto",
            "postcode": "---"
        }
    },
    {
        "location": {
            "latitude": 54.354789,
            "longitude": 18.6547502
        },
        "categories": {
            "main": "Transport",
            "sub": "Rowery MEVO"
        },
        "name": "GDA256",
        "address": {
            "street": "Olejarna 2, 80-843 Gdańsk",
            "city": "Trójmiasto",
            "postcode": "---"
        }
    },
    {
        "location": {
            "latitude": 54.3551761,
            "longitude": 18.6560876
        },
        "categories": {
            "main": "Transport",
            "sub": "Rowery MEVO"
        },